[{"lat":"51.5309471","lng":"-0.0900901","id":1914392,"name":"Nappy Ever After","address":"81 Murray Grove","country":"United Kingdom","state":"Greater London","city":"London","postal":"N1 7QJ"},{"lat":"39.0141491","lng":"-94.5837537","id":1914393,"name":"Itsy Bitsy Bums","address":"6213 Oak St","country":"USA","state":"MO","city":"Kansas City","postal":"64113"},{"lat":"45.9768554","lng":"-94.3645891","id":1914394,"name":"Baby's on Broadway","address":"47 East Broadway","country":"USA","state":"MN","city":"Little Falls","postal":"56345"},{"lat":"44.187003","lng":"-88.4621702","id":1914395,"name":"Mom and Pop Place","address":"117 W. Wisconsin Ave","country":"USA","state":"WI","city":"Neenah","postal":"54956"},{"lat":"37.5530326","lng":"-77.4796355","id":1914396,"name":"Clementine Retail II","address":"3024 West Cary St.","country":"USA","state":"VA","city":"Richmond","postal":"23221"},{"lat":"33.965815","lng":"-83.403884","id":1914397,"name":"The Natural Baby","address":"1590 Prince Avenue","country":"USA","state":"GA","city":"Athens","postal":"30606"},{"lat":"21.3969462","lng":"-157.742067","id":1914398,"name":"Beach Bums Kailua","address":"315 Uluniu Street, Suite 208","country":"USA","state":"HI","city":"Kailua","postal":"96734"},{"lat":"46.7319473","lng":"-117.0011776","id":1914399,"name":"Lilliput","address":"312 South Main Street","country":"USA","state":"ID","city":"Moscow","postal":"83843"},{"lat":"47.2030871","lng":"-122.2422261","id":1914400,"name":"SugarBabies","address":"926 Main Street","address2":"Suite #104","country":"USA","state":"WA","city":"Sumner","postal":"98390"},{"lat":"44.2264188","lng":"-70.5186615","id":1914401,"name":"Diaper Shop","address":"141 Western Ave","country":"USA","state":"ME","city":"South Paris","postal":"4281"},{"lat":"42.010406","lng":"-88.671833","id":1914402,"name":"express yourself mama & baby boutique","address":"360 ELI BARNES COURT","country":"USA","state":"IL","city":"SYCAMORE","postal":"60178"},{"lat":"36.116052","lng":"-80.060298","id":1914403,"name":"Homegrown Baby Boutique","address":"717 B Graves Street","country":"USA","state":"NC","city":"Kernersville","postal":"27284"},{"lat":"35.7441255","lng":"-78.7366089","id":1914404,"name":"Grow the family boutique","address":"2885 JONES FRANKLIN RD","country":"USA","state":"NC","city":"RALEIGH","postal":"27606"},{"lat":"32.7773442","lng":"-96.7903114","id":1914405,"name":"Market Provisions Co","address":"920 S Harwood St","address2":"#162","country":"USA","state":"TX","city":"Dallas","postal":"75201"},{"lat":"32.2210533","lng":"-110.9284186","id":1914406,"name":"Little Bird Nesting Company","address":"2924 E Broadway Blvd","country":"USA","state":"AZ","city":"Tucson","postal":"85716"},{"lat":"26.1975413","lng":"-81.800052","id":1914407,"name":"Twinkle Twinkle Little Store","address":"1005 Shady Rest","country":"USA","state":"FL","city":"Naples","postal":"34103"},{"lat":"39.9257596","lng":"-86.0876405","id":1914408,"name":"Toasty Baby","address":"4825 E 96th St","address2":"Suite 500","country":"USA","state":"IN","city":"Indianapolis","postal":"46240"},{"lat":"42.075304","lng":"-80.166308","id":1914409,"name":"Milestones Quality Children's","address":"2829 Broadlawn Dr","country":"USA","state":"PA","city":"Erie","postal":"16506"},{"lat":"39.3947487","lng":"-101.0458073","id":1914410,"name":"Nesting","address":"135 North Franklin Avenue","country":"USA","state":"KS","city":"Colby","postal":"67701"},{"lat":"30.5194373","lng":"-87.2143152","id":1914411,"name":"Storkland","address":"8585 North Davis Hwy","country":"USA","state":"FL","city":"Pensacola","postal":"32514"},{"lat":"30.433181","lng":"-84.268913","id":1914412,"name":"Ecological Babies","address":"947 CARLTON DR","country":"USA","state":"FL","city":"TALLAHASSEE","postal":"32301"},{"lat":"42.9998069","lng":"-87.9051549","id":1914413,"name":"Bellies and Babies Boutique","address":"2455 S. Howell Ave","country":"USA","state":"WI","city":"Milwaukee","postal":"53207"},{"lat":"38.8284425","lng":"-104.8225349","id":1914414,"name":"Baby Cotton Bottoms","address":"330 S. Nevada Ave","country":"USA","state":"CO","city":"Colorado Springs","postal":"80903"},{"lat":"39.7513428","lng":"-121.8245916","id":1914415,"name":"Apple Blossom Baby","address":"1372 Longfellow Ave","country":"USA","state":"CA","city":"Chico","postal":"95926"},{"lat":"31.0754725","lng":"-97.7475769","id":1914416,"name":"Babies Booties and Boobies","address":"403 E Stan Schlueter Loop Ste 303","country":"USA","state":"TX","city":"Killeen","postal":"76542"},{"lat":"40.5745794","lng":"-111.9080765","id":1914417,"name":"All Together Enterprises","address":"9713 S 600 W","country":"USA","state":"UT","city":"Sandy","postal":"84070"},{"lat":"35.4862322","lng":"-97.5403652","id":1914418,"name":"The Changing Table","address":"1745 NW 16th Street","address2":"Ste A","country":"USA","state":"OK","city":"Oklahoma City","postal":"73106"},{"lat":"29.901816","lng":"-95.6216448","id":1914419,"name":"Nurtured Family","address":"8525 Jackrabbit Road","address2":"Suite K","country":"USA","state":"TX","city":"Houston","postal":"77095"},{"lat":"38.2283967","lng":"-85.7005503","id":1914420,"name":"The Diaper Fairy","address":"1811 Bardstown Rd.","country":"USA","state":"KY","city":"Louisville","postal":"40205"},{"lat":"34.902724","lng":"-82.291918","id":1914421,"name":"Modern Cloth LLc","address":"1220 Taylors Rd","country":"USA","state":"SC","city":"Taylors","postal":"29687"},{"lat":"35.172868","lng":"-101.936457","id":1914422,"name":"Fluffaholic","address":"7910 Underwood Dr","country":"USA","state":"TX","city":"Amarillo","postal":"79121"},{"lat":"40.661343","lng":"-89.530756","id":1914423,"name":"Nurtured Baby Boutique","address":"1654 Meadow Ave","country":"USA","state":"IL","city":"East Peoria","postal":"61611"},{"lat":"38.9896327","lng":"-94.690307","id":1914424,"name":"Teeny Greeny","address":"7610 Kessler Ln","country":"USA","state":"KS","city":"Overland Park","postal":"66204"},{"lat":"35.9244419","lng":"-84.0390578","id":1914425,"name":"Bohemian Baby","address":"7600 Kingston Pike","address2":"1012","country":"USA","state":"TN","city":"Knoxville","postal":"37919"},{"lat":"35.9316228","lng":"-79.054491","id":1914426,"name":"Women's Birth & Wellness Boutique","address":"930 Martin Luther King Jr Blvd","address2":"Suite 204","country":"USA","state":"NC","city":"Chapel Hill","postal":"27514"},{"lat":"46.592244","lng":"-120.571673","id":1914427,"name":"The Nest","address":"615 S 48th Ave","address2":"Suite A","country":"USA","state":"WA","city":"Yakima","postal":"98908"},{"lat":"41.927913","lng":"-73.9132258","id":1914428,"name":"waddle n swaddle","address":"6423 Montgomery St. #1","country":"USA","state":"NY","city":"Rhinebeck","postal":"12572"},{"lat":"40.8847329","lng":"-81.4224612","id":1914429,"name":"Zenvesco","address":"7090 Whipple Ave NW","country":"USA","state":"OH","city":"North Canton","postal":"44720"},{"lat":"33.0216173","lng":"-80.1553885","id":1914430,"name":"Green Jelly Bean","address":"112 Evelyn Joy Drive","country":"USA","state":"SC","city":"Summerville","postal":"29483"},{"lat":"41.2339765","lng":"-96.1225863","id":1914431,"name":"T2B Baby","address":"13459 W Center Road","country":"USA","state":"NE","city":"Omaha","postal":"68144"},{"lat":"33.0896339","lng":"-96.913026","id":1914432,"name":"Earthkind Homegoods","address":"6200 Stewart Blvd.","country":"USA","state":"TX","city":"The Colony","postal":"75056"},{"lat":"35.24187","lng":"-80.803594","id":1914433,"name":"Ivy's Diaper Service","address":"3031 Clemson Ave","country":"USA","state":"NC","city":"Charlotte","postal":"28205"},{"lat":"30.3961613","lng":"-88.9318034","id":1914434,"name":"American Martial Art Academy","address":"156 Acacia Ave","country":"USA","state":"MS","city":"Bilox","postal":"39530"},{"lat":"38.8693083","lng":"-77.2314602","id":1914435,"name":"Spark Yoga","address":"2987 District Ave","address2":"Suite 120","country":"USA","state":"VA","city":"Fairfax","postal":"22031"},{"lat":"40.8371517","lng":"-73.942961","id":1914436,"name":"JMC Pharmacy, Inc.","address":"3875 Broadway","address2":"Unit A","country":"USA","state":"NY","city":"New York","postal":"10032"},{"lat":"42.3177012","lng":"-72.6316114","id":1914437,"name":"a child's garden","address":"204 main street","country":"USA","state":"MA","city":"northampton","postal":"1060"},{"lat":"28.6538081","lng":"-81.2667042","id":1914438,"name":"Baby Bottoms Boutique","address":"5633 WOOD SORRELL CT","country":"USA","state":"FL","city":"WINTER SPRINGS","postal":"32708"},{"lat":"40.0201769","lng":"-105.2516319","id":1914439,"name":"Childish Things","address":"3183 Walnut St.","country":"USA","state":"CO","city":"Boulder","postal":"80301"},{"lat":"43.6199279","lng":"-116.3177388","id":1914440,"name":"Boise Cloth Diapers","address":"10870 W Fairview Ave, Suite 101","country":"USA","state":"ID","city":"Boise","postal":"83713"},{"lat":"44.4492556","lng":"-88.0594561","id":1914441,"name":"Green Baybeez","address":"109 N Wisconsin St","country":"USA","state":"WI","city":"De Pere","postal":"54115"},{"lat":"32.7809701","lng":"-96.7888475","id":1914442,"name":"Clean & Green Luxury Cloth Diaper Service","address":"2225 Canton Street #133","country":"USA","state":"TX","city":"Dallas","postal":"75201"},{"lat":"36.128003","lng":"-97.042044","id":1914443,"name":"Green Pea Diapers","address":"1324 E. Scott Ave.","country":"USA","state":"OK","city":"Stillwater","postal":"74075"},{"lat":"34.2064743","lng":"-118.2316933","id":1914444,"name":"Bellies, Babies & Bosoms","address":"2430 Honolulu Ave","country":"USA","state":"CA","city":"Montrose","postal":"91020"},{"lat":"34.74235","lng":"-77.372461","id":1914445,"name":"American Eco-Baby & Diaper Service","address":"1939 Unit 400 Lejeune Blvd","country":"USA","state":"NC","city":"Jacksonville","postal":"28546"},{"lat":"40.0546203","lng":"-82.8846935","id":1914446,"name":"Nature's Path Market","address":"1360 Cherry Bottom Road","country":"USA","state":"OH","city":"Gahanna","postal":"43230"},{"lat":"35.5785914","lng":"-82.5898942","id":1914447,"name":"The Littlest Birds","address":"The Littlest Birds","address2":"647 Haywood Road","country":"USA","state":"NC","city":"Asheville","postal":"28806"},{"lat":"34.8699491","lng":"-82.4219749","id":1914448,"name":"Swamp Rabbit Cafe Grocery","address":"205 Cedar Lane Rd","country":"USA","state":"SC","city":"Greenville","postal":"29611"},{"lat":"39.0674999","lng":"-108.5629269","id":1914449,"name":"Colorado Baby","address":"560 Main Street","country":"USA","state":"CO","city":"Grand Junction","postal":"81501"},{"lat":"27.7792502","lng":"-82.6464657","id":1914450,"name":"Growing Up","address":"689B Dr MLK St N","country":"USA","state":"FL","city":"St Petersburg","postal":"33701"},{"lat":"32.6151008","lng":"-117.0265969","id":1914451,"name":"Buggies and Babie","address":"601 e palomar st","address2":"ste c403","country":"USA","state":"CA","city":"chula vista","postal":"91911"},{"lat":"42.4389644","lng":"-123.3279902","id":1914452,"name":"Eco Tots","address":"131 SW G Street","country":"USA","state":"OR","city":"Grants Pass","postal":"97526"},{"lat":"42.5620158","lng":"-83.975582","id":1914453,"name":"bloom baby and kids","address":"2234 ridgewood drive","country":"USA","state":"MI","city":"Howell","postal":"48843"},{"lat":"48.944313","lng":"-119.434513","id":1914454,"name":"Baby & Me","address":"1920 N. Main Street","country":"USA","state":"WA","city":"Oroville","postal":"98844"},{"lat":"35.92434","lng":"-86.791672","id":1914455,"name":"Different Diapers","address":"1119 Hudson Lane","country":"USA","state":"TN","city":"Franklin","postal":"37067"},{"lat":"39.1805817","lng":"-76.8260031","id":1914456,"name":"greenberries","address":"6925 Oakland Mills Road","address2":"Suite S","country":"USA","state":"MD","city":"Columbia","postal":"21045"},{"lat":"28.0893101","lng":"-80.5739196","id":1914457,"name":"Coastal Cloth Baby & Co.","address":"427 5th Ave","country":"USA","state":"FL","city":"Indialantic","postal":"32903"},{"lat":"29.791249","lng":"-95.398172","id":1914458,"name":"The Pure Parenting Shop","address":"2401 Yale Street","country":"USA","state":"TX","city":"Houston","postal":"77008"},{"lat":"39.1721354","lng":"-86.5414684","id":1914459,"name":"The Green Nursery","address":"615 N Fairview St","address2":"Unit 4","country":"USA","state":"IN","city":"Bloomington","postal":"47404"},{"lat":"35.310122","lng":"-77.860861","id":1914460,"name":"Herbs R 4 U","address":"306 Tramway Place","country":"USA","state":"NC","city":"Goldsboro","postal":"27534"},{"lat":"42.4992118","lng":"-89.0354544","id":1914461,"name":"A Much Better Way LLC","address":"319 State St","country":"USA","state":"WI","city":"Beloit","postal":"53511"},{"lat":"33.4461271","lng":"-111.9632809","id":1914462,"name":"Zoolikins","address":"5454 E Washington St","address2":"#2","country":"USA","state":"AZ","city":"Phoenix","postal":"85034"},{"lat":"38.5893738","lng":"-92.2499901","id":1914463,"name":"Whaley's Pharmacy, Inc.","address":"3526 Amazonas Drive","country":"USA","state":"MO","city":"Jefferson City","postal":"65109"},{"lat":"42.7257669","lng":"-84.4525269","id":1914464,"name":"Z Bear Diapers \/ Little Green Branches","address":"4976 Nortwind Drive","country":"USA","state":"MI","city":"East Lansing","postal":"48823"},{"lat":"46.2890957","lng":"-119.2773484","id":1914465,"name":"Buckwheat Bottoms","address":"1386 Jadwin","country":"USA","state":"WA","city":"Richland","postal":"99354"},{"lat":"42.0237309","lng":"-91.6671698","id":1914466,"name":"Birth, Baby, & Beyond","address":"4330 Czech Ln NE","address2":"A6","country":"USA","state":"IA","city":"Cedar Rapids","postal":"52402"},{"lat":"33.5207127","lng":"-101.9054843","id":1914467,"name":"Green Dazzle Baby","address":"8004 Quaker Ave Ste E","country":"USA","state":"TX","city":"Lubbock","postal":"79424"},{"lat":"39.3356561","lng":"-84.5288591","id":1914468,"name":"Reruns for Wee Ones","address":"5353 Dixie Highway","country":"USA","state":"OH","city":"Fairfield","postal":"45014"},{"lat":"26.8495412","lng":"-80.0948279","id":1914469,"name":"GreenPath Baby","address":"11701 Lake Victoria Gardens Ave","address2":"Suite 7108","country":"USA","state":"FL","city":"Palm Beach Gardens","postal":"33410"},{"lat":"38.5433708","lng":"-121.7393381","id":1914470,"name":"Mother and Baby Source","address":"714 Second St.","country":"USA","state":"CA","city":"Davis","postal":"95616"},{"lat":"38.858882","lng":"-94.6690037","id":1914471,"name":"Mommy Shop","phone":"66223","address":"14870 Metcalf Ave.","state":"KS","city":"Overland Park"},{"lat":"40.7970939","lng":"-81.4832002","id":1914472,"name":"The Breastfeeding Center","phone":"(330) 837-0220","address":"2800 Lincoln Way East","country":"USA","state":"OH","city":"Massillon","postal":"44646"},{"lat":"33.8500505","lng":"-84.2584933","id":1914473,"name":"Baby Love Eco Chic Boutique","phone":"4045901380","address":"2244 Henderson Mill Road","address2":"Suite #500","country":"USA","state":"GA","city":"Atlanta","postal":"30345"},{"lat":"35.857028","lng":"-86.429037","id":1914474,"name":"Fleet Feet Murfreesboro","address":"544 N. Thompson Lane","country":"USA","state":"TN","city":"Murfreesboro","postal":"37129"},{"lat":"32.251169","lng":"-110.836122","id":1914475,"name":"Fleet Feet Tucson - Eastside","address":"7301 E Tanque Verde Road","address2":"Ste 151","country":"USA","state":"AZ","city":"Tucson","postal":"85715"},{"lat":"37.278298","lng":"-79.959272","id":1914476,"name":"Fleet Feet Roanoke","address":"4347 Franklin Road","country":"USA","state":"VA","city":"Roanoke","postal":"24018"},{"lat":"41.759987","lng":"-72.746315","id":1914477,"name":"Fleet Feet Hartford","address":"1003 Farmington Ave","country":"USA","state":"CT","city":"West Hartford","postal":"6107"},{"lat":"41.343164","lng":"-81.527311","id":1914478,"name":"Fleet Feet Sports Cleveland - Northfield","address":"114 East Aurora Road","address2":"#200","country":"USA","state":"OH","city":"Northfield","postal":"44067"},{"lat":"41.913204","lng":"-87.635078","id":1914479,"name":"Fleet Feet Sports Chicago - Old Town","address":"1706 N. Wells Street","country":"USA","state":"IL","city":"Chicago","postal":"60614"},{"lat":"35.610503","lng":"-77.371924","id":1914480,"name":"Fleet Feet Greenville NC","address":"Suite 104 Greenville NC 27858","address2":"Suite 104","country":"USA","state":"NC","city":"Greenville","postal":"27858"},{"lat":"34.163139","lng":"-117.575614","id":1914481,"name":"Fleet Feet Rancho Cucamonga","address":"7233 Haven Ave","country":"USA","state":"CA","city":"Rancho Cucamonga","postal":"91701"},{"lat":"43.185995","lng":"-89.234724","id":1914482,"name":"Fleet Feet Sun Prairie","address":"2828 Prairie Lakes Drive","address2":"Suite 106","country":"USA","state":"WI","city":"Sun Prairie","postal":"53590"},{"lat":"27.32973","lng":"-82.533963","id":1914483,"name":"Fleet Feet Sarastoa","address":"711 S. Osprey Ave","address2":"Suite 1","country":"USA","state":"FL","city":"Sarasota","postal":"34236"},{"lat":"36.990581","lng":"-121.895088","id":1914484,"name":"Fleet Feet Aptos","address":"7960 Soquel Drive","address2":"Suite I","country":"USA","state":"CA","city":"Aptos","postal":"95003"},{"lat":"34.235488","lng":"-77.827246","id":1914485,"name":"Fleet Feet Wilmington","address":"1125 Military Cutoff Road","address2":"Suite D","country":"USA","state":"NC","city":"Wilmington","postal":"28405"},{"lat":"35.904837","lng":"-78.935755","id":1914486,"name":"Fleet Feet Durham","address":"6807 Fayetteville Road","address2":"Suite 105","country":"USA","state":"NC","city":"Durham","postal":"27713"},{"lat":"41.494726","lng":"-87.466181","id":1914487,"name":"Fleet Feet Schererville","address":"635 East US 30","country":"USA","state":"IN","city":"Schererville","postal":"46375"},{"lat":"28.674628","lng":"-81.4065","id":1914488,"name":"Fleet Feet Orlando","address":"303 E Altamonte Dr","address2":"#1140","country":"USA","state":"FL","city":"Altamonte Springs,","postal":"32701"},{"lat":"36.217989","lng":"-86.513862","id":1914489,"name":"Fleet Feet Mt Juliet","address":"630 S Mt. Juliet Road","address2":"Suite C","country":"USA","state":"TN","city":"Mt Juliet","postal":"37122"},{"lat":"32.344982","lng":"-110.977545","id":1914490,"name":"Fleet Feet Tucson - Oro Valley","address":"7607 N. Oracle Road","country":"USA","state":"AZ","city":"Oro Valley","postal":"85704"},{"lat":"41.968276","lng":"-87.688475","id":1914491,"name":"Fleet Feet Chicago - Lincoln Square","address":"4762 North Lincoln Ave","country":"USA","state":"IL","city":"Chicago","postal":"60625"},{"lat":"41.869409","lng":"-87.63272","id":1914492,"name":"Fleet Feet Chicago - South Loop","address":"150 West Roosevelt Road","country":"USA","state":"IL","city":"Chicago","postal":"60605"},{"lat":"43.104106","lng":"-89.503072","id":1914493,"name":"Fleet Feet Madison","address":"8440 Old Sauk Road","country":"USA","state":"WI","city":"Middleton","postal":"53562"},{"lat":"36.598361","lng":"-121.89498","id":1914494,"name":"Fleet Feet Monterey","address":"472 Alvarado Street","country":"USA","state":"CA","city":"Monterey","postal":"93940"},{"lat":"39.625814","lng":"-106.809994","id":1914495,"name":"A Good Sport Co.","address":"422 McIntire St # 3","state":"CO","city":"Eagle","postal":"81631"},{"lat":"41.46899986","lng":"-81.90989348","id":1914496,"name":"Fleet Feet Cleveland - Westlake","address":"26149 Detroit Road","state":"OH","city":"Westlake","postal":"44145"},{"lat":"41.46239196","lng":"-81.45898661","id":1914497,"name":"Fleet Feet Cleveland - Pepper Pike","address":"30679 Pinetree Road","state":"OH","city":"Pepper Pike","postal":"44124"},{"lat":"35.9104317","lng":"-79.0694217","id":1914498,"name":"Fleet Feet Carrboro","phone":"(919) 968-3338","address":"310 E Main St","address2":"#120","state":"NC","city":"Carrboro","postal":"27510"},{"lat":"37.09024","lng":"-95.712891","id":1914499,"name":"Lave Wash","phone":"707-803-0144 ","web":"https:\/\/lavewash.com\/","address":"N\/A: Diaper Service","address2":"-","country":"USA","state":"-","city":"-","postal":"-"},{"lat":"41.956882","lng":"-78.647426","id":1914500,"name":"The Fluffy Baby Boutique","phone":"814-596-0175 ","web":"https:\/\/www.thefluffybaby.com\/","address":"17 Kennedy Street","country":"USA","state":"PA","city":"Bradford","postal":"16701"},{"lat":"37.2852184","lng":"-121.9428385","id":1914501,"name":"Tiny Tots Baby Boutique","phone":"408-866-2925","web":"http:\/\/tinytots.com\/","address":"138 Railway Avenue","country":"USA","state":"CA","city":"Campbell","postal":"95008"},{"lat":"41.8407484","lng":"-90.1895268","id":1914502,"name":"Zirkelbach's","phone":"563-242-6121","web":"http:\/\/www.zirkelbachs.com\/","address":"225 5th Ave South","state":"IA","city":"Clinton","postal":"52732"},{"lat":"30.6692156","lng":"-96.3489421","id":1914503,"name":"Wee Little Me","phone":"979-485-9624","web":"https:\/\/www.basicsforbreastfeeding.com\/","address":"2700 E. Villa Maria","country":"USA","state":"TX","city":"Bryan","postal":"77802"},{"lat":"37.7647098","lng":"-122.2426133","id":1914504,"name":"Tot Tank","phone":"510-865-8265","web":"http:\/\/www.tottank.com\/","address":"1413 Park Streett","country":"USA","state":"CA","city":"Alameda","postal":"94501"},{"lat":"18.3769274","lng":"-66.1418571","id":1914505,"name":"Babies Heaven","phone":"787-379-5088","address":"63 PR-174, Bayam\\u00f3n,","country":"Puerto Rico","state":"PR","city":"Bayamin","postal":"959"},{"lat":"42.7283346","lng":"-87.7832891","id":1914506,"name":"RG Natural Babies","phone":"262-898-1305","web":"http:\/\/www.rgnaturalbabies.com\/","address":"430 Main Street","country":"USA","state":"WI","city":"Racine","postal":"53403"},{"lat":"42.9998069","lng":"-87.9051549","id":1914507,"name":"Well Rounded Maternity","phone":"414-744-7001","web":"http:\/\/well-roundedmaternity.com\/","address":"2455 S. Howell Ave","country":"USA","state":"WI","city":"Milwaukee","postal":"53207"},{"lat":"47.5705226","lng":"-122.6148317","id":1914508,"name":"Nola Baby Co","phone":"360-731-9675","web":"https:\/\/www.nolababyco.com\/","address":"1102 Scott Ave #102,","country":"USA","state":"WA","city":"Bremerton","postal":"98310"},{"lat":"38.3700576","lng":"-121.961772","id":1914509,"name":"Eco Chic","phone":"707-624-6168","web":"http:\/\/ecochiclife.net\/","address":"1661 E. Monte Vista #102","country":"USA","state":"CA","city":"Vacaville","postal":"95688"},{"lat":"44.2264672","lng":"-70.5181057","id":1914510,"name":"The Diaper Shops","phone":"207-747-0044","address":"141 Western Ave","country":"USA","state":"ME","city":"South Paris","postal":"4281"},{"lat":"35.7901252","lng":"-78.7716618","id":1914511,"name":"Grow Eco Baby","phone":"919-520-0851","address":"502 E Chatham Street","country":"USA","state":"NC","city":"Cary","postal":"27511"},{"lat":"42.8056195","lng":"-71.2624797","id":1914512,"name":"Canobie Lake Veterinary Hospital","phone":"603-898-8982","web":"https:\/\/canobievet.com\/?utm_source=google&utm_medium=organic&utm_campaign=gmb&utm_term=website","address":"61 Range Rd","country":"USA","state":"NH","city":"Windham","postal":"3087"},{"lat":"41.808064","lng":"-88.2816224","id":1914513,"name":"Healthy Pet","phone":"630-851-5187","web":"https:\/\/healthypetaurora.com\/","address":"2620 N Farnswoth Avenue","country":"USA","state":"IL","city":"Aurora","postal":"60502"},{"lat":"39.696189","lng":"-111.8367403","id":1914514,"name":"Quality Fitness","phone":"435-660-9203","web":"http:\/\/quality.fitness\/","address":"860 South Main Street","country":"USA","state":"UT","city":"Nephi","postal":"84648"},{"lat":"39.747685","lng":"-84.1376802","id":1914515,"name":"Kochanie","phone":"9374753665","address":"3120 Linden Ave","country":"USA","state":"OH","city":"Dayton","postal":"45410"},{"lat":"42.7370876","lng":"-84.6166986","id":1914516,"name":"Mother Earth Baby Boutique","phone":"(517) 721-1868","web":"https:\/\/www.motherandearth.com\/","address":"322 Richard Ave","country":"USA","state":"MI","city":"Lansing","postal":"48917"},{"lat":"38.2078124","lng":"-86.1232738","id":1914517,"name":"The Nest - Natural Parenting","phone":"8127048128","address":"304 lemmon st","country":"USA","state":"IN","city":"city","postal":"47112"},{"lat":"41.9063967","lng":"-88.2145052","id":1914518,"name":"A Baby Naturally","phone":"6309404608","address":"1250 Thomas Drive","country":"USA","state":"IL","city":"Chicago","postal":"60185"},{"lat":"34.1470808","lng":"-118.4267544","id":1914519,"name":"Earth Baby","phone":"818-917-6193","web":"https:\/\/www.babyearth.com\/","address":"13454 Ventura Blvd","country":"USA","state":"CA","city":"Sherman Oaks","postal":"91423"},{"lat":"33.8500621","lng":"-84.2584575","id":1914520,"name":"Baby Love","phone":"404-707-0994","address":"2244 Henderson Mill Road","address2":"Suite 500","country":"USA","state":"GA","city":"Atlanta","postal":"30345"},{"lat":"41.1264377","lng":"-104.7487533","id":1914521,"name":"Sierra Trading Post","phone":"307-772-8154","address":"Sierra Trading Post, INC","address2":"5121 Campstool Road","country":"USA","state":"WY","city":"Cheyenne","postal":"82007"},{"lat":"19.6267654","lng":"-155.9815826","id":1914522,"name":"Kaila Boutique","phone":"8089372340","address":"75-5995 Kuakini Hwy","address2":"Suite 604","country":"USA","state":"HI","city":"Kailua-Kona","postal":"96740"},{"lat":"35.8022959","lng":"-78.7803069","id":1914523,"name":"Blue Sky Pilates","phone":"919-622-7624","web":"http:\/\/www.blueskypilatesofcary.com\/","address":"160 NE Maynard Road","address2":"#102","country":"USA","state":"NC","city":"Cary","postal":"27513"},{"lat":"27.7833587","lng":"-82.6380889","id":1914524,"name":"Growing Up St Pete","phone":"727.894.4769","web":"https:\/\/growingupstpete.com\/","address":"327 11TH AVE N","country":"USA","state":"FL","city":"St. Peterburg","postal":"33701"},{"lat":"35.1746016","lng":"-80.8484518","id":1914525,"name":"Blackhawk Hardware Inc.","phone":"704-525-2682","web":"https:\/\/blackhawkhardware.com\/","address":"4225 Park Road Shopping Center","country":"USA","state":"NC","city":"Charlotte","postal":"28209"},{"lat":"38.5901612","lng":"-92.2509329","id":1914526,"name":"Whaley's West Side Pharmacy","phone":"573.659.0650","web":"http:\/\/www.whaleysrx.com\/","address":"3526 Amazonas","country":"USA","state":"MO","city":"Jefferson City","postal":"65109"},{"lat":"40.813763","lng":"-96.6755526","id":1914527,"name":"Circle Me","phone":"402-435-6767","web":"https:\/\/www.shopcircleme.com\/","address":"3120 O St.","country":"USA","state":"NE","city":"Lincoln","postal":"68510"},{"lat":"35.3943476","lng":"-80.9200723","id":1914528,"name":"Rebellia","phone":"704-743-8959","address":"6715 Colonial Garden Dr.","country":"USA","state":"NC","city":"Huntersville","postal":"28078"},{"lat":"32.2512893","lng":"-110.8361532","id":1914529,"name":"Fleet Feet Tucson","phone":"520-886-7800","web":"www.fleetfeettucson.com","address":"7301 E Tanque Verde Road","address2":"Ste 151","country":"USA","state":"AZ","city":"Tucson","postal":"85715"},{"lat":"32.3449458","lng":"-110.9777207","id":1914530,"name":"Fleet Feet Tucson - Oro Valley Location ","phone":"520-219-2323","web":"www.fleetfeettucson.com","address":"7607 N. Oracle Road ","address2":"bldg #21","country":"USA","state":"AZ","city":"Oro Valley","postal":"85704"},{"lat":"38.8060319","lng":"-89.9523521","id":1914531,"name":"Green Earth Grocery","phone":"(618) 656-3375","web":"http:\/\/www.greenearthgrocer.com\/retailer\/store_templates\/ret_about_us.asp?storeID=5P9LR2WTRES92J2200AKHMCCQA2L5D23","address":"441 S BUCHANAN ST","country":"USA","state":"IL","city":"Edwardsville","postal":"62025"},{"lat":"35.9316746","lng":"-79.0544414","id":1914532,"name":"Women's Birth & Wellness Center","phone":"919-537-7055","web":"https:\/\/ncbirthcenter.org\/","address":"930 martin luther king jr blvd","address2":"suite 204","country":"USA","state":"NC","city":"chapel hill","postal":"27514"},{"lat":"28.4587887","lng":"-81.4438855","id":1914533,"name":"The Crunchtastic Place","phone":"3219870177","web":"https:\/\/www.thecrunchtasticplace.com\/","address":"4832 Big Horn St","country":"USA","state":"FL","city":"Orlando","postal":"32819"},{"lat":"39.6526351","lng":"-106.8310661","id":1914534,"name":"A Good Sport Co., LLC","phone":"970.328.5545","address":"422 McIntire St # 3,","country":"USA","state":"CO","city":"Eagle","postal":"81631-4636"},{"lat":"40.5745794","lng":"-111.9080765","id":1914535,"name":"ClothDiaper.Com","phone":"(801) 566-7579","web":"www.clothdiaper.com","address":"9713 S 600 W","country":"USA","state":"UT","city":"Sandy","postal":"84070"},{"lat":"33.7169667","lng":"-118.0046105","id":1914536,"name":"Pannolino & Precious Bottoms","phone":"657-210-1021","web":"http:\/\/www.ocdiaperservice.com\/","address":"7071 Warner Ave, F-85","country":"USA","state":"CA","city":"Huntington Beach","postal":"92647"},{"lat":"28.663546","lng":"-81.3817852","id":1914537,"name":"Fleet Feet Orlando - Altamonte Springs","phone":"407-772-2233","web":"http:\/\/www.fleetfeetorlando.com\/","address":"303 E Altamonte Dr","address2":"#1140","country":"USA","state":"FL","city":"Altamonte Springs,","postal":"32701"},{"lat":"28.5154496","lng":"-81.3781273","id":1914538,"name":"Fleet Feet Orlando - Orlando SODO","phone":"407-930-6056","web":"www.fleetfeetorlando.com","address":"25 W. Crystal Lake Street","country":"USA","state":"FL","city":"Orlando","postal":"32806"},{"lat":"42.6773581","lng":"-91.9137021","id":1914539,"name":"Oelwein Family Pharmacy","phone":"319-283-4663","web":"https:\/\/stores.healthmart.com\/oelweinfamily","address":"32 South Frederick","country":"USA","state":"IA","city":"OELWEIN","postal":"50662"},{"lat":"41.4681902","lng":"-81.9094679","id":1914540,"name":"Fleet Feet Sports Cleveland - Westlake","phone":"440-455-1156","web":"http:\/\/www.fleetfeetcleveland.com\/","address":"26149 Detroit Road","country":"USA","state":"OH","city":"Westlake","postal":"44145"},{"lat":"41.462931","lng":"-81.461819","id":1914541,"name":"Fleet Feet Sports Cleveland - Pepper Pike","phone":"216-464-3234","web":"http:\/\/www.fleetfeetcleveland.com\/","address":"30679 Pinetree Road","country":"USA","state":"OH","city":"Pepper Pike","postal":"44124"},{"lat":"43.2028739","lng":"-70.8804869","id":1914542,"name":"Gi Grasshopper","phone":"603-781-2540","address":"74 sixth street","country":"USA","state":"NH","city":"Dover","postal":"3820"},{"lat":"35.4853592","lng":"-82.5557003","id":1914543,"name":"Fleet Feet Asheville","phone":"(828) 676-3536","web":"http:\/\/www.fleetfeetasheville.com\/","address":"8 Town Square Blvd #165","country":"USA","state":"NC","city":"Asheville","postal":"28803"},{"lat":"37.0422459","lng":"-76.3511074","id":1914544,"name":"Crossfit Stimulus","phone":"757-675-9077","web":"https:\/\/www.crossfitstimulus.com\/","address":"19 W Mercury Blvd","country":"USA","state":"VA","city":"Hampton","postal":"23669"},{"lat":"35.0566847","lng":"-78.8992521","id":1914545,"name":"Fleet Feet Fayetteville","phone":"910-758-9127","web":"http:\/\/www.fleetfeetfayettevillenc.com\/","address":"1221 Hay St.","country":"USA","state":"NC","city":"Fayetteville","postal":"28305"},{"lat":"18.220833","lng":"-66.590149","id":1914546,"name":"Sra Marilen Sepulveda","address":"Panaleo Y Mas","address2":"Urb.Alta Vista Calle 13 i-36","country":"USA","state":"PR","city":"Ponce Ponce","postal":"716"},{"lat":"35.78272","lng":"-78.6608497","id":1914547,"name":"Open Door Yoga","phone":"919 455-5772","web":"http:\/\/www.opendooryogastudio.com\/","address":"212 Cox Ave","country":"USA","state":"NC","city":"Raleigh","postal":"27605"},{"lat":"40.769103","lng":"-96.6146612","id":1914548,"name":"Fleet Feet Lincoln","phone":"(402) 904-4648","web":"http:\/\/www.fleetfeetlincoln.com\/","address":"7701 Pioneers Blvd.","address2":"Ste 2","country":"USA","state":"NE","city":"Lincoln","postal":"68506"},{"lat":"41.2328718","lng":"-96.1915591","id":1914549,"name":"Fleet Feet Omaha","phone":"402)884-8800","web":"http:\/\/www.fleetfeetlincoln.com\/","address":"17660 Wright St","country":"USA","state":"NE","city":"Omaha","postal":"68130"},{"lat":"40.4888977","lng":"-88.9853024","id":1914550,"name":"PINSTRIPES AND POLKADOTS, LLC","phone":"2178489990","web":"http:\/\/www.pinstripesandpolkadots.com\/","address":"1108 N. Clinton Blvd","country":"USA","state":"IL","city":"Bloomington","postal":"61701"},{"lat":"42.3570974","lng":"-71.1435249","id":1914551,"name":"Cambridge Naturals","phone":"617-208-8881","web":"https:\/\/www.cambridgenaturals.com\/","address":"92 Guest St","country":"USA","state":"MA","city":"Boston","postal":"2135"},{"lat":"26.5498127","lng":"-81.8691658","id":1914552,"name":"Fleet Feet Fort Myers","phone":"(239) 985-0041","web":"http:\/\/www.fleetfeetfortmyers.com\/","address":"13499 S Cleveland Ave STE#247","country":"USA","state":"FL","city":"Fort Myers","postal":"33907"},{"lat":"37.5530292","lng":"-77.4796173","id":1914553,"name":"Clover Kids","phone":"804.355.3517","web":"https:\/\/www.cloverkids.com\/","address":"3024 West Cary St","country":"USA","state":"VA","city":"Richmond","postal":"23221"},{"lat":"36.3143783","lng":"-82.3526491","id":1914554,"name":"Fleet Feet Johnson City","phone":"4234610550","web":"http:\/\/www.fleetfeetkingsport.com\/","address":"302 Buffalo St","address2":"Suite 100","country":"USA","state":"TN","city":"Johnson City","postal":"37604"},{"lat":"36.5434096","lng":"-82.5207396","id":1914555,"name":"Fleet Feet Kingsport","phone":"(423) 230-0002","web":"http:\/\/www.fleetfeetkingsport.com\/","address":"1880 N Eastman Rd #205","country":"USA","state":"TN","city":"Kingsport","postal":"37664"},{"lat":"41.5640649","lng":"-90.5249595","id":1914556,"name":"Fleet Feet Davenport","phone":"563-355-1231","web":"http:\/\/www.fleetfeetdavenport.com\/","address":"4257 Elmore Ave","country":"USA","state":"IA","city":"Davenport","postal":"52807"},{"lat":"41.498351","lng":"-81.5655193","id":1914557,"name":"Cleveland Running Company","phone":"216-991-2000","web":"http:\/\/www.clevelandrunning.com\/","address":"2248 Lee Road","country":"USA","state":"OH","city":"Cleveland","postal":"44118"},{"lat":"39.188938","lng":"-106.81844","id":1914558,"name":"Ute Mountaineer","phone":"970-925-2849","web":"http:\/\/www.utemountaineer.com\/","address":"210 South Galena St","country":"USA","state":"CO","city":"Aspen","postal":"81611"},{"lat":"32.8782223","lng":"-96.715786","id":1914559,"name":"Lake Highlands Crossfit","phone":"214-989-7545","web":"http:\/\/crossfitlakehighlands.com\/","address":"9850 Walnut Hill","address2":"#405","country":"USA","state":"TX","city":"Dallas","postal":"75238"},{"lat":"41.9681363","lng":"-87.688524","id":1914560,"name":"Fleet Feet Sports Chicago - Lincoln Square","phone":"773-271-3338","web":"http:\/\/www.fleetfeetchicago.com\/","address":"4762 North Lincoln Ave","country":"USA","state":"IL","city":"Chicago","postal":"60625"},{"lat":"41.8683735","lng":"-87.6322614","id":1914561,"name":"Fleet Feet Sports Chicago - South Loop","phone":"312-788-3338","web":"http:\/\/www.fleetfeetchicago.com\/","address":"150 West Roosevelt Road","country":"USA","state":"IL","city":"Chicago","postal":"60605"},{"lat":"41.9468916","lng":"-87.6637372","id":1914562,"name":"Fleet Feet Sports Chicago - Lakeview","phone":"773-281-3338","web":"http:\/\/www.fleetfeetchicago.com\/","address":"3559 North Southport Ave","country":"USA","state":"IL","city":"Chicago","postal":"60657"},{"lat":"41.9008601","lng":"-87.9387143","id":1914563,"name":"Fleet Feet Sports Chicago - Elmhurst","phone":"630-559-3338","web":"http:\/\/www.fleetfeetchicago.com\/","address":"124 East Schiller Street","country":"USA","state":"IL","city":"Elmhurst","postal":"60126"},{"lat":"41.8875633","lng":"-87.8021913","id":1914564,"name":"Fleet Feet Sports Chicago - Oak Park ","phone":"708-383-3338","web":"http:\/\/www.fleetfeetchicago.com\/","address":"102 North Marion Street","country":"USA","state":"IL ","city":"Oak Park ","postal":"60301"},{"lat":"42.1674827","lng":"-87.8461121","id":1914565,"name":"Fleet Feet Sports Chicago - Deerfield ","phone":"847-945-2929","web":"http:\/\/www.fleetfeetchicago.com\/","address":"800 Waukegan Road","country":"USA","state":"IL ","city":"Deerfield ","postal":"60015"},{"lat":"30.2183522","lng":"-81.6149194","id":1914566,"name":"1st Place Sports - Baymeadows","phone":"(904) 264-3767","web":"http:\/\/1stplacesports.com\/","address":"3931 Baymeadows Rd","country":"USA","state":"FL","city":"Jacksonville","postal":"32217"},{"lat":"30.3036559","lng":"-81.6536653","id":1914567,"name":"1st Place Sports - San Marco","phone":"(904) 399-8880","web":"http:\/\/1stplacesports.com\/","address":"2018 San Marco Blvd.","country":"USA","state":"FL","city":"Jacksonville","postal":"32207"},{"lat":"30.2574895","lng":"-81.5536661","id":1914568,"name":"1st Place Sports - Tapestry Park ","phone":"(904) 620-9991","web":"http:\/\/1stplacesports.com\/","address":"9823 Tapestry Park Circle","country":"USA","state":"FL","city":"Jacksonville","postal":"32246"},{"lat":"30.1631196","lng":"-81.7018483","id":1914569,"name":"1st Place Sports - Orange Park ","phone":"(904) 264-3767","web":"http:\/\/1stplacesports.com\/","address":"2186 Park Avenue","country":"USA","state":"FL","city":"Orange Park ","postal":"32073"},{"lat":"30.2835963","lng":"-81.3911032","id":1914570,"name":"1st Place Sports - Jacksonville Beach","phone":"(904) 270-2221","web":"http:\/\/1stplacesports.com\/","address":"424 S. 3rd Street","country":"USA","state":"FL","city":"Jacksonville Beach","postal":"32250"},{"lat":"33.9879089","lng":"-81.0038906","id":1914571,"name":"Rosewood Market and Deli","phone":"803) 765-1083","web":"https:\/\/www.rosewoodmarket.com\/","address":"2803 Rosewood Dr","country":"USA","state":"SC","city":"Columbia","postal":"29205"},{"lat":"32.7374811","lng":"-97.398978","id":1914572,"name":"Roy Pope Grocers","phone":"(817) 732-2863","web":"http:\/\/roypopegrocery.com\/","address":"2300 Merrick Street","country":"USA","state":"TX","city":"Forth Worth","postal":"76107"},{"lat":"41.692469","lng":"-86.1865888","id":1914573,"name":"Fleet Feet Mishawaka","phone":"574-257-7867","web":"http:\/\/www.fleetfeetmishawaka.com\/","address":"3522 North Grape Road","country":"USA","state":"IN","city":"Mishawaka","postal":"46545"},{"lat":"34.8698356","lng":"-82.4219916","id":1914574,"name":"Swamp Rabbit Cafe and Grocery","phone":"(864) 255-3385","web":"http:\/\/swamprabbitcafe.com\/","address":"205 Cedar Lane Rd","country":"USA","state":"SC","city":"Greenville","postal":"29611"},{"lat":"35.568178","lng":"-77.3809354","id":1914575,"name":"The Y","address":"105 Dupont Circle","country":"USA","state":"NC","city":"Greenville","postal":"27858"},{"lat":"27.2573566","lng":"-80.1994152","id":1914576,"name":"Cowabunga Surf and Sport","phone":"7723347873","web":"https:\/\/www.cowabungasurfandsport.com\/","address":"4336 NE Ocean Blvd","country":"USA","state":"FL","city":"Jensen Beach","postal":"34957"},{"lat":"33.6576863","lng":"-117.8668859","id":1914577,"name":"Mixx Yoga","phone":"949-706-0650","web":"http:\/\/mixxyoga.com\/","address":"1000 BRISTOL ST N STE 14","country":"USA","state":"CA","city":"Newport Beach","postal":"92660-8916"},{"lat":"45.529029","lng":"-73.52467","id":1914578,"name":"La Petite Ourse","phone":"438-868-0603","web":"https:\/\/lapetiteourse.ca\/boutique\/","address":"987 Pierre-Dupuy","country":"Canada","state":"QC","city":"Longueuil","postal":"J4K 1A1"},{"lat":"35.9104021","lng":"-79.0693567","id":1914579,"name":"Fleet Feet Carrboro ","phone":" (919) 968-3338","web":"http:\/\/www.fleetfeetcarrboro.com\/","address":"310 E Main St #120","country":"USA","state":"NC","city":"Carrboro","postal":"27510"},{"lat":"27.715321","lng":"-82.374296","id":1914580,"name":"Bulk Food Superstore","phone":"813-938-1605","web":"http:\/\/www.bulkfoodsuperstore.com\/","address":"3804 Sun City Center Blvd","country":"USA","state":"FL","city":"Sun City","postal":"33573"},{"lat":"44.0443077","lng":"-92.5211084","id":1914581,"name":"Brennan Family Chiro & Nutrition","phone":"507.289.3333","web":"http:\/\/www.brennanhealth.com\/","address":"2048 Superior Dr. NW","address2":"Ste. 500","country":"USA","state":"MN","city":"Rochester","postal":"55901"},{"lat":"33.4219349","lng":"-86.7965319","id":1914582,"name":"Pure Fitness","phone":"2054201054","web":"https:\/\/www.purefitnessllc.com\/","address":"1425 MONTGOMERY HWY","address2":"STE 115","country":"USA","state":"AL","city":"VESTAVIA","postal":"35216-3685"},{"lat":"40.7924355","lng":"-73.971003","id":1914583,"name":"Upper 90 Soccer","phone":"(516) 450-3817","web":"https:\/\/u90soccer.com\/","address":"697 Amsterdam Ave","country":"USA","state":"NY","city":"New York","postal":"10025"},{"lat":"45.6760431","lng":"-122.6679606","id":1914584,"name":"Bikram Yoga Hazel Dell","phone":"5037057638","web":"http:\/\/bikramyogahazeldell.com\/","address":"7409 ne hazel dell ave. #104","country":"USA","state":"WA","city":"vancouver","postal":"98665"},{"lat":"39.1546745","lng":"-84.4266908","id":1914585,"name":"Fleet Feet Cincinnati - Oakley Center","phone":"513) 321-7555","web":"http:\/\/fleetfeetcincy.com\/","address":"3235 Madison Rd","country":"USA","state":"OH","city":"Cincinnati","postal":"45209"},{"lat":"39.2310444","lng":"-84.378616","id":1914586,"name":"Fleet Feet Cincinnati - The Crossings of Blue Ash ","phone":"(513)793-8383","web":"http:\/\/fleetfeetcincy.com\/","address":"9525 Kenwood Road","country":"USA","state":"OH","city":"Cincinnati","postal":"45242"},{"lat":"35.4953862","lng":"-80.8540198","id":1914587,"name":"Yoga On Davidson","phone":"980.231.5569","web":"http:\/\/www.yogaondavidson.com\/","address":"120-B South Village Lane","country":"USA","state":"NC","city":"Davidson","postal":"28036"},{"lat":"32.5990911","lng":"-84.9332458","id":1914588,"name":"Novo Fitness Studio","phone":"7065619868","web":"https:\/\/www.novofitnessstudio.com\/","address":"1084 N Country Court","country":"USA","state":"GA","city":"Fortson","postal":"31808"},{"lat":"33.5177232","lng":"-82.0593986","id":1914589,"name":"Fleet Feet Augusta","phone":"(706) 922-9860","web":"www.fleetfeet.com","address":"229 Furys Ferry Road","address2":"Suite 107","country":"USA","state":"GA","city":"Augusta","postal":"30907"},{"lat":"43.0589172","lng":"-88.1288766","id":1914590,"name":"Performance Running Outfitters - Brookfield","phone":"262-784-7989","web":"http:\/\/www.performancerunning.com\/","address":"2205 N Calhoun Rd #22A","country":"USA","state":"WI","city":"Brookfield","postal":"53005"},{"lat":"43.0490694","lng":"-88.3768154","id":1914591,"name":"Performance Running Outfitters - Delafield","phone":"1-262-303-5118","web":"http:\/\/www.performancerunning.com\/","address":"2566 Sun Valley Dr","country":"USA","state":"WI","city":"Delafield","postal":"53018"},{"lat":"43.099087","lng":"-87.8877739","id":1914592,"name":"Performance Running Outfitters - Shorewood","phone":"1-414-332-2786","web":"http:\/\/www.performancerunning.com\/","address":"4533 N Oakland Ave","country":"USA","state":"WI","city":"Shorewood","postal":"53211"},{"lat":"42.9006722","lng":"-87.9169882","id":1914593,"name":"Performance Running Outfitters - Oak Creek","phone":"1-414-574-5155","web":"http:\/\/www.performancerunning.com\/","address":"7956 S Main St","state":"WI","city":"Oak Creek","postal":"53154"},{"lat":"19.634727","lng":"-155.9896468","id":1914594,"name":"Big Island Running Company","phone":"(808) 327-9333","web":"http:\/\/www.bigislandrunningcompany.com\/","address":"75-5807 Alii Drive #C-8","country":"USA","state":"HI","city":"Kailua-Kona","postal":"96740"},{"lat":"36.1621807","lng":"-86.5159579","id":1914595,"name":"Fleet Feet Mt. Juliet","phone":"(615) 553-4089","web":"www.fleetfeet.com","address":"630 S Mt Juliet Rd Ste 320","country":"USA","state":"TN","city":"Mt Juliet","postal":"37122"},{"lat":"32.9426816","lng":"-97.0774443","id":1914596,"name":"Bikram Yoga North Texas","phone":"817-682-1052","web":"https:\/\/bikramyoganorthtexas.com\/","address":"240 N. Main Street","country":"USA","state":"TX","city":"Grapevine","postal":"76051"},{"lat":"35.2936492","lng":"-120.668745","id":1914597,"name":"Spark Yoga California","phone":"805-550-2663","web":"http:\/\/www.smileatspark.com\/","address":"977 E Foothill Blvd","address2":"Suite 111","country":"USA","state":"CA","city":"San Luis Obispo","postal":"93405"},{"lat":"21.4267999","lng":"-157.9493589","id":1914598,"name":"Ola Pono Oahu","phone":"8089274131","address":"2387 Anihinihi St","country":"USA","state":"HI","city":"Pearl City","postal":"96782"},{"lat":"47.620306","lng":"-122.3296238","id":1914599,"name":"REI Seattle","phone":"206-223-1944","fax":"206-223-1407","address":"222 Yale Ave. N.","state":"WA","city":"Seattle","postal":"98109-5429"},{"lat":"37.8791766","lng":"-122.296312","id":1914600,"name":"REI Berkeley","phone":"510-527-4140","fax":"510-527-7470","address":"1338 San Pablo Ave.","state":"CA","city":"Berkeley","postal":"94702-1094"},{"lat":"45.5287626","lng":"-122.6856048","id":1914601,"name":"REI Portland","phone":"503-221-1938","fax":"503-221-1946","address":"1405 NW Johnson St.","state":"OR","city":"Portland","postal":"97209"},{"lat":"44.8606656","lng":"-93.2915334","id":1914602,"name":"REI Bloomington","phone":"952-884-4315","fax":"952-884-2887","address":"750 West American Blvd.","state":"MN","city":"Bloomington","postal":"55420"},{"lat":"61.1943943","lng":"-149.9059448","id":1914603,"name":"REI Anchorage","phone":"907-272-4565","fax":"907-274-5102","address":"1200-A W. Northern Lights Blvd.","state":"AK","city":"Anchorage","postal":"99503"},{"lat":"33.7215142","lng":"-117.7956965","id":1914604,"name":"REI Tustin ","phone":"714-505-0205","fax":"714-505-0214","address":"2962 El Camino Real","state":"CA","city":"Tustin","postal":"92782"},{"lat":"39.7553288","lng":"-105.0094454","id":1914605,"name":"REI Denver","phone":"303-756-3100","fax":"720-855-7121","address":"1416 Platte St.","state":"CO","city":"Denver","postal":"80202"},{"lat":"40.7008332","lng":"-111.8010118","id":1914606,"name":"REI Salt Lake City","phone":"801-486-2100","fax":"801-486-2167","address":"3285 East 3300 South","state":"UT","city":"Salt Lake City","postal":"84109"},{"lat":"38.5976541","lng":"-121.4496235","id":1914607,"name":"REI Sacramento","phone":"916-924-8900","fax":"916-924-9070","address":"1790 Expo Parkway","state":"CA","city":"Sacramento","postal":"95815"},{"lat":"37.2886546","lng":"-121.991892","id":1914608,"name":"REI Saratoga","phone":"408-871-8765","fax":"408-871-9787","address":"400 El Paseo de Saratoga","state":"CA","city":"San Jose","postal":"95130"},{"lat":"32.8384246","lng":"-117.1629632","id":1914609,"name":"REI San Diego","phone":"858-279-4400","fax":"858-279-1313","address":"5556 Copley Drive","state":"CA","city":"San Diego","postal":"92111"},{"lat":"35.1351592","lng":"-106.6073031","id":1914610,"name":"REI Albuquerque","phone":"505-247-1191","fax":"505-242-9947","address":"1550 Mercantile Ave. N.E.","state":"NM","city":"Albuquerque","postal":"87107"},{"lat":"33.840156","lng":"-84.321498","id":1914611,"name":"REI Atlanta","phone":"404-633-6508","fax":"404-636-5048","address":"1800 N.E. Expressway","state":"GA","city":"Atlanta","postal":"30329"},{"lat":"45.3931124","lng":"-122.7524339","id":1914612,"name":"REI Tualatin","phone":"503-624-8600","fax":"503-684-6099","address":"7410 S.W. Bridgeport Road","state":"OR","city":"Tigard","postal":"97224-7789"},{"lat":"37.5039794","lng":"-122.2464227","id":1914613,"name":"REI San Carlos","phone":"650-508-2330","fax":"650-508-2325","address":"1119 Industrial Road, Suite 1B","state":"CA","city":"San Carlos","postal":"94070"},{"lat":"40.019157","lng":"-105.2599824","id":1914614,"name":"REI Boulder","phone":"303-583-9970","fax":"303-583-9977","address":"1789 28th Street","state":"CO","city":"Boulder","postal":"80301-1003"},{"lat":"33.9293624","lng":"-84.3484039","id":1914615,"name":"REI Perimeter","phone":"770-901-9200","fax":"770-901-9340","address":"1165 Perimeter Center West, Suite 200","state":"GA","city":"Atlanta","postal":"30338"},{"lat":"33.6021666","lng":"-111.9892309","id":1914616,"name":"REI Paradise Valley","phone":"602-996-5400","fax":"602-996-2211","address":"12634 N. Paradise Village Pkwy. W.","state":"AZ","city":"Phoenix","postal":"85032-7671"},{"lat":"39.5982561","lng":"-104.8856893","id":1914617,"name":"REI Greenwood Village","phone":"303-221-7759","fax":"303-221-7756","address":"9000 E Peakview Ave","state":"CO","city":"Greenwood Village","postal":"80111"},{"lat":"39.0508142","lng":"-77.1158864","id":1914618,"name":"REI Rockville","phone":"301-770-1751","fax":"301-984-2152","address":"910 Rose Avenue","state":"MD","city":"North Bethesda","postal":"20852"},{"lat":"34.0164374","lng":"-118.4947488","id":1914619,"name":"REI Santa Monica","phone":"310-458-4370","fax":"310-458-1089","address":"402 Santa Monica Blvd.","state":"CA","city":"Santa Monica","postal":"90401"},{"lat":"34.191391","lng":"-118.3324057","id":1914620,"name":"REI Burbank","phone":"253-455-3391","fax":"818-847-9549","address":"1900 W Empire Ave, Ste R12","state":"CA","city":"Burbank","postal":"91504"},{"lat":"18.4593211","lng":"-66.9049323","id":1914621,"name":"Mononis","phone":"1-787-356-8048","address":"10105 Carr. 484","country":"USA","state":"PR","city":"Quebradillas","postal":"00678-9751"},{"lat":"41.8450515","lng":"-89.3038259","id":1914622,"name":"Lincoln Way Inn B&B","phone":"8154567700","address":"409 N. State St.","country":"USA","state":"IL","city":"Frankling Grove","postal":"61031"},{"lat":"40.5665028","lng":"-80.2126044","id":1914623,"name":"Lucky Vitamin","phone":"412-749-5522","address":"Buncher Commerce Park","address2":"Building 8 Avenue B","country":"USA","state":"PA","city":"Leetsdale","postal":"15056"},{"lat":"26.8489519","lng":"-80.0936734","id":1914624,"name":"Green Path Baby","phone":"561-222-0021","address":"11701 Lake Victoria Gardens Ave","address2":"Suite 7108","country":"USA","state":"FL ","city":"Palm Beach Gardens","postal":"33410"},{"lat":"35.8571824","lng":"-86.4289636","id":1914625,"name":"Fleet Feet Murfreesboro\/Mt. Juliet","phone":"615-494-3141","address":"544 N. Thompson Lane","country":"USA","state":"TN","city":"Murfreesboro","postal":"37129"},{"lat":"42.4807739","lng":"-82.897737","id":1914626,"name":"Motor City CrossFit SCS","phone":"8105777213","address":"21720 Maple St","country":"USA","state":"MI","city":"St. Clair Shores","postal":"48081"},{"lat":"40.5714451","lng":"-105.0791027","id":1914627,"name":"Colorado State University HES","phone":"970-491-5339","address":"1582 Campus Delivery","country":"USA","state":"CO","city":"Ft. Collins","postal":"80523"},{"lat":"45.2704346","lng":"-92.9841108","id":1914628,"name":"Living Well Boutique","phone":"6512315007","address":"806 Lake Street S","country":"USA","state":"MN","city":"Forest Lake","postal":"55025"},{"lat":"41.8741664","lng":"-103.6626235","id":1914629,"name":"Transcend Pilates Studios","phone":"308-225-3141","address":"11 E 27th Street","country":"USA","state":"NE","city":"Scottsbluff","postal":"69341"},{"lat":"40.5657387","lng":"-111.8939671","id":1914630,"name":"BuyBuyBaby","phone":"720-465-6595","address":"10230 SOUTH STATE STREET","country":"USA","state":"UT","city":"SANDY","postal":"84070"},{"lat":"-34.917821","lng":"138.6256051","id":1914631,"name":"Baby Beehinds","phone":"+ 61 2 4976 2729","address":"Unit 2\/16 King Street","country":"Australia","state":"South Australia","city":"Norwood","postal":"5067"},{"lat":"43.2027497","lng":"-88.7448707","id":1914632,"name":"Blooming Bums","phone":"9209881800","address":"509 Sweetbriar Lane","country":"USA","state":"WI","city":"Watertown","postal":"53098"},{"lat":"40.5745794","lng":"-111.9080765","id":1914633,"name":"All Together Enterprises, dba ClothDiaper.com","phone":"(801) 566-7579","address":"9713 S 600 W","country":"USA","state":"UT","city":"Sandy","postal":"84070"},{"lat":"1.3199349","lng":"103.8349402","id":1914634,"name":"iconiumtrade - Singapore","address":"80 Barker Road","country":"Singapore","state":"Republic of Singapore","city":"Singapore","postal":"309937"},{"lat":"41.3138237","lng":"-81.5347285","id":1914635,"name":"Fleet Feet Sports Cleveland","phone":"3309083234","address":"114 East Aurora Road","address2":"#200","country":"USA","state":"OH","city":"Northfield","postal":"44067"},{"lat":"41.913183","lng":"-87.634966","id":1914636,"name":"Fleet Feet Sports Chicago","phone":"773.561.3338 x 235","address":"1706 N. Wells Street","country":"USA","state":"IL","city":"Chicago","postal":"60614"},{"lat":"40.304968","lng":"-85.635503","id":1914637,"name":"HoofPrints","phone":"765-724-7004","address":"13849 N 200 E","country":"USA","state":"IN","city":"Alexandria","postal":"46001"},{"lat":"42.33844","lng":"-72.662856","id":1914638,"name":"Jason Mark","phone":"413-270-1825","address":"116 Straw Ave","country":"USA","state":"MA","city":"Florence","postal":"1062"},{"lat":"43.1673295","lng":"-89.2706997","id":1914639,"name":"Fleet Feet Madison\/Sun Prairie","phone":"608-834-9999","address":"2828 Prairie Lakes Drive","address2":"Suite 106","country":"USA","state":"WI","city":"Sun Prairie","postal":"53590"},{"lat":"38.9407801","lng":"-90.904377","id":1914640,"name":"Jen's Personalized Fitness","phone":"3149606022","address":"34 Meadow View Lane","country":"USA","state":"MO","city":"Moscow Mills","postal":"63362"},{"lat":"35.138164","lng":"-80.8773419","id":1914641,"name":"2ULaundry","phone":"980.312.2642","address":"901 E Arrowood Road","country":"USA","state":"NC","city":"Charlotte","postal":"28217"},{"lat":"36.401561","lng":"-82.4301414","id":1914642,"name":"Grow Together Boutique","phone":"423-426-0893","address":"311 Post Oak Drive","country":"USA","state":"TN","city":"Johnson City","postal":"37615"},{"lat":"30.2183522","lng":"-81.6149194","id":1914643,"name":"1st Place Sports","phone":"(904) 264-3767","address":"3931 Baymeadows Rd","country":"USA","state":"FL","city":"Jacksonville","postal":"32217"},{"lat":"27.2205263","lng":"-82.4915428","id":1914644,"name":"Inspiring Wellness LLC","address":"8830 S. Tamiami Trail","address2":"Unit 100","country":"USA","state":"FL","city":"Sarasota","postal":"34238"},{"lat":"40.769103","lng":"-96.6146612","id":1914645,"name":"Fleet Feet Lincoln\/Omaha","address":"7701 Pioneers Blvd.","address2":"Ste 2","country":"USA","state":"NE","city":"Lincoln","postal":"68506"},{"lat":"36.3143783","lng":"-82.3526491","id":1914646,"name":"Fleet Feet Johnson City\/ Kingsport","phone":"4234610550","address":"302 Buffalo St","address2":"Suite 100","country":"USA","state":"TN","city":"Johnson City","postal":"37604"},{"lat":"27.5451452","lng":"-99.51051","id":1914647,"name":"Fluffyholica","phone":"5.30E+11","address":"1601W Calton Road","address2":"BLDG 1","country":"USA","state":"TX","city":"Laredo","postal":"78041"},{"lat":"35.2105802","lng":"-80.8579991","id":1914648,"name":"Iron Tribe - Charlotte","address":"215 E Worthington Ave","country":"USA","state":"NC","city":"Charlotte","postal":"28203"},{"lat":"40.7558014","lng":"-73.8359764","id":1914649,"name":"Tiny Dreams","phone":"718-353-7174","address":"131-12 40 Rd","address2":"2FL","country":"USA","state":"NY","city":"Flushing","postal":"11355"},{"lat":"39.1546745","lng":"-84.4266908","id":1914650,"name":"Fleet Feet Cincinnati","address":"3235 Madison Rd","country":"USA","state":"OH","city":"Cincinnati","postal":"45209"},{"lat":"37.09024","lng":"-95.712891","id":1914652,"name":"Spring Breeze Marketing Pte. Ltd.","phone":"(65) 6909 3430","address":"something","country":"USA","state":"something","city":"something","postal":"something"},{"lat":"43.0589172","lng":"-88.1288766","id":1914653,"name":"Performance Running Outfitters","phone":"262-784-7989","address":"2205 N Calhoun Rd #22A","country":"USA","state":"WI","city":"Brookfield","postal":"53005"},{"lat":"37.1713672","lng":"-94.8253751","id":1914654,"name":"Blessed Diaper Service","phone":"6207623267","address":"120 N 5th Ave","country":"USA","state":"KS","city":"COLUMBUS","postal":"66725"},{"lat":"28.0514613","lng":"-82.3927161","id":1914655,"name":"Chuck's Natural Fields Market","phone":"813-988-9444","address":"11301 N 56th Street","country":"USA","state":"FL","city":"Temple Terrace","postal":"33617"},{"lat":"33.8507187","lng":"-84.429112","id":1914656,"name":"West Stride","phone":"404-932-6072","address":"3517 Northside Pkwy","country":"USA","state":"GA","city":"Atlanta","postal":"30327"},{"lat":"36.8047482","lng":"-76.727745","id":1914657,"name":"Anytime Fitness","address":"11403 D Windsor Blvd","country":"USA","state":"VA","city":"Windsor","postal":"23487-5684"},{"lat":"38.0520087","lng":"-78.4999484","id":1914658,"name":"Rebecca's Natural Food","phone":"4349771965","address":"1141 Emmet Street North","country":"USA","state":"VA","city":"Charlottesville","postal":"22903"},{"lat":"38.030882","lng":"-84.4910194","id":1914659,"name":"John's Run\/Walk Shop","address":"317 S Ashland Ave","country":"USA","state":"KY","city":"Lexington","postal":"40502"},{"lat":"48.7627746","lng":"-122.4639442","id":1914660,"name":"Brio Laundry","phone":"(360) 656-5621","address":"810 Alabama Street","country":"USA","state":"WA","city":"Bellingham","postal":"98225"},{"lat":"40.8155798","lng":"-96.7034351","id":1914661,"name":"Lincoln Running Company","phone":"402.474.4557","address":"1213 Q Street","country":"USA","state":"NE","city":"Lincoln","postal":"68508"},{"lat":"28.0008022","lng":"-81.9801939","id":1914662,"name":"Fitniche","address":"1523 Town Center Dr","country":"USA","state":"FL","city":"Lakeland","postal":"33803"},{"lat":"41.6053915","lng":"-93.7379948","id":1914663,"name":"Fitness Sports LTD","phone":"(515) 277-4785","address":"8810 Swanson Blvd","country":"USA","state":"IA","city":"Clive","postal":"50325"},{"lat":"35.2070881","lng":"-80.8351947","id":1914664,"name":"Run For Your LIfe","address":"901 S Kings Dr #100","country":"USA","state":"NC","city":"Charlotte","postal":"28204"},{"lat":"32.932974","lng":"-97.226791","id":1914665,"name":"Bear Creek Running Company","phone":"(817) 337-0950","address":"101 Town Center Ln","address2":"Suite 115","country":"USA","state":"TX","city":"Keller","postal":"76248"},{"lat":"40.6882354","lng":"-89.5908321","id":1914666,"name":"RC Outfitters","phone":"3092012529","address":"311 SW Water St.","address2":"FLR #1","country":"USA","state":"IL","city":"Peoria","postal":"61602"},{"lat":"32.8038164","lng":"-79.890651","id":1914667,"name":"Fleet Feet Mount Pleasant","address":"881 Houston Northcutt Blvd","country":"USA","state":"SC","city":"Mount Pleasant","postal":"29464"},{"lat":"33.8129228","lng":"-84.357923","id":1914668,"name":"Atlanta Judo Midtown","phone":"404-8056316","address":"2213 Faulkner Road NE","country":"USA","state":"GA","city":"Atlanta","postal":"30329"},{"lat":"18.2185679","lng":"-66.0142896","id":1914669,"name":"Uniformes y Sublimacion","phone":"787-364-1914","address":"U-47 Roosevelt","country":"Puerto Rico","state":"PR","city":"Caguas","postal":"725"},{"lat":"31.9570663","lng":"-81.3268337","id":1914670,"name":"Georgia Game Changers","phone":"912-445-2163","address":"8872 Ford Ave","address2":"Suite 207","country":"USA","state":"GA","city":"Richmond Hill","postal":"31324"},{"lat":"43.6325264","lng":"-116.2970173","id":1914732,"name":"Boise Cloth Diapers","address":"3025 N Dalton Ln","country":"USA","state":"ID","city":"Boise","postal":"83704"},{"lat":"39.3947146","lng":"-101.0458066","id":1914734,"name":"Nesting","address":"135 North Franklin Ave","country":"USA","state":"KS","city":"Colby","postal":"67701"},{"lat":"33.4461495","lng":"-111.9633344","id":1914736,"name":"Zoolikins","phone":"302-481-6481","address":"5454 E. Washington Street","address2":"Suite 2","country":"USA","state":"AZ","city":"Phoenix","postal":"85034"},{"lat":"18.389396","lng":"-66.1653224","id":1914737,"name":"Babies Heaven","phone":"787-379-5088","address":"88 CAR 174 URB AGUSTIN STAHL","country":"USA","state":"PR","city":"Bayamin","postal":"956"},{"lat":"47.6849047","lng":"-122.6568086","id":1914739,"name":"Nola Baby Co","phone":"360-731-9675","address":"13296 Lake Shore Drive NW","country":"USA","state":"WA","city":"Poulsbo","postal":"98370"},{"lat":"34.877327","lng":"-82.3587828","id":1914741,"name":"Modern Cloth LLC","phone":"864-238-6045","address":"1374 N Pleasantburg Drive","country":"USA","state":"SC","city":"Greenville","postal":"27607"},{"lat":"35.5785665","lng":"-82.5898826","id":1914742,"name":"The Littlest Birds","phone":"828-253-4747","address":"647 Haywood Road","country":"USA","state":"NC","city":"Asheville","postal":"28806"},{"lat":"42.8030515","lng":"-71.2655888","id":1914744,"name":"Canobie Lake Veterinary Hospital","phone":"603-898-8982","address":"72 Range Road ","country":"USA","state":" NH ","city":"Windham","postal":"3087"},{"lat":"30.5194457","lng":"-87.2142774","id":1914746,"name":"Storkland","phone":"850-478-2633","address":"8585 North Davis Highway","country":"USA","state":"FL","city":"Pensacola","postal":"32514"},{"lat":"35.1591589","lng":"-101.8661748","id":1914747,"name":"Fluffaholic","phone":"806-205-6611","address":"3318 S Georgia St","address2":"Suite 2708","country":"USA","state":"TX","city":"Amarillo","postal":"79109"},{"lat":"27.779085","lng":"-82.646473","id":1914749,"name":"Growing Up St Pete","phone":"7278944769","address":"689 Dr. Martin Luther King St N","address2":"STE B","country":"USA","state":"FL","city":"St. Peterburg","postal":"33701"},{"lat":"42.075937","lng":"-79.2259797","id":1914751,"name":"Herbs R 4 U","phone":"9192885408","address":"1465 Foote Ave","country":"USA","state":"NY","city":"Jamestown","postal":"14701"},{"lat":"40.7970619","lng":"-81.4832062","id":1914753,"name":"The Breastfeeding Center","phone":"330-837-0220","address":"2800 Lincoln Way E","country":"USA","state":"OH","city":"Massillon","postal":"44646"},{"lat":"46.5922257","lng":"-120.571628","id":1914755,"name":"The Nest","phone":"509-670-6433","address":"615 S 48th Ave Suite A","country":"USA","state":"WA","city":"Yakima","postal":"98908"},{"lat":"37.2852184","lng":"-121.9428385","id":1914757,"name":"Tiny Tots Baby Boutique","phone":"408-866-2925","address":"138 Rallway Ave","country":"USA","state":"CA","city":"Campbell","postal":"95008"},{"lat":"41.6938381","lng":"-73.9009282","id":1914758,"name":"Waddle n Swaddle","phone":"8452408399","address":"32 Raymond Avenue","country":"USA","state":"NY","city":"Poughkeepsie","postal":"12603"},{"lat":"38.8284425","lng":"-104.8225349","id":1914760,"name":"Baby Cotton Bottoms","phone":"719-328-0741","address":"330 S Nevada Ave","country":"USA","state":"CO","city":"Colorado Springs","postal":"80903"},{"lat":"30.4407143","lng":"-88.8921971","id":1914762,"name":"American Martial Art Academy","phone":"228-238-7444","address":"3291 A Warrior Drive","country":"USA","state":"MS","city":"D'Iberville","postal":"39540"},{"lat":"39.6335818","lng":"-106.8076749","id":1914764,"name":"A Good Sport Co., LLC","phone":"970.328.5545","address":"1864 Eagle Ranch Rd","address2":"X4636","country":"USA","state":"CO","city":"Eagle","postal":"81631-4636"},{"lat":"41.8407484","lng":"-90.1895268","id":1914766,"name":"Zirkelbach's","address":"225 5th Avenue South","country":"USA","state":"IA","city":"Clinton","postal":"52732"},{"lat":"38.2544203","lng":"-122.0364984","id":1914768,"name":"Lave Wash","phone":"7078030144","address":"324 Utah st","country":"USA","state":"CA","city":"Fairfield","postal":"94533"},{"lat":"40.7563077","lng":"-73.9219371","id":1914769,"name":"Upper 90 Soccer","address":"34-23 38th Street","country":"USA","state":"NY","city":"Queens","postal":"11101"},{"lat":"33.4554247","lng":"-86.73503649999998","id":1915662,"name":"Fleet Feet Birmingham","address":"3120 Heights Village","country":"USA","state":"AL","city":"Birmingham","postal":"35243"},{"lat":"42.0572306","lng":"-72.55576659999997","id":1915785,"name":"Fleet Feet Longmeadow","address":"680 Bliss Road","country":"USA","state":"MA","city":"Longmeadow","postal":"01106"},{"lat":"44.912623","lng":"-93.32085159999997","id":1915808,"name":"Fleet Feet Marathon","address":"3212 W 50th Street","country":"USA","state":"MN","city":"Minneapolis","postal":"55410"},{"lat":"40.2477556","lng":"-77.00639849999999","id":1915809,"name":"Fleet Feet Mechanicsburg","address":"6416 Carlisle Pike","country":"USA","state":"PA","city":"Mechanicsburg","postal":"17050"},{"lat":"38.6661519","lng":"-90.6007092","id":1915810,"name":"Fleet Feet St. Louis Chesterfield","phone":"855-588-2786 x2","address":"278 THF Boulevard","country":"USA","state":"MO","city":"Chesterfield","postal":"63005"},{"lat":"38.7199631","lng":"-90.7028852","id":1915811,"name":"Fleet Feet St. Louis O'Fallon","phone":"855-588-2786 x6","address":"4623 Highway K ","country":"USA","state":"MO","city":"O'Fallon","postal":"63368"},{"lat":"38.5087485","lng":"-90.3757473","id":1915812,"name":"Fleet Feet St. Louis South County ","phone":"855-588-2786 x3","address":"12494 Tesson Ferry Road","country":"USA","state":"MO","city":"St. Louis ","postal":"63128"},{"lat":"38.6013815","lng":"-90.4287033","id":1915813,"name":"Fleet Feet St. Louis Dese Peres","phone":"855-588-2786 x4","address":"11731 Manchester Road","country":"USA","state":"MO","city":"Des Peres","postal":"63131"},{"lat":"38.7901844","lng":"-90.5622047","id":1915814,"name":"Fleet Feet St. Louis St. Charles","phone":"855-588-2786 x1","address":"3813 Mexico Road","country":"USA","state":"MO","city":"Saint Charles","postal":"63303"},{"lat":"41.8429521","lng":"-89.48405630000002","id":2556976,"name":"Stone Bridge Running","phone":"815-677-9492","address":"107 S Hennepin Ave","country":"USA","state":"IL","city":"Dixon","postal":"61021"},{"lat":"1.20594","lng":"103.5029","id":2712929,"name":"Baby Gates n Safety","web":"http:\/\/www.babygatesnsafety.com","webdisplay":"www.babygatesnsafety.com","address":"39 Jalan Pemimpin","address2":"#06-01 Tailee Industrial Building","country":"Singapore","state":"Singapore","city":"Singapore","postal":"577182"},{"lat":"37.6520701","lng":"-77.6184167","id":5864914,"name":"Fleet Feet Richmond - Short Pump","phone":"804-360-4600","web":"https:\/\/www.fleetfeet.com\/s\/richmond\/about\/directions\/short-pump","webdisplay":"www.fleetfeet.com\/s\/richmond\/about\/directions\/short-pump","address":"11651 West Broad Street","country":"USA","state":"VA","city":"Henrico","postal":"23233"},{"lat":"37.5780296","lng":"-77.512148","id":5864917,"name":"Fleet Feet Richmond - Westhampton","phone":"804-282-6600","web":"https:\/\/www.fleetfeet.com\/s\/richmond\/about\/directions\/westhampton","webdisplay":"www.fleetfeet.com\/s\/richmond\/about\/directions\/westhampton","address":"5600 Patterson Avenue","country":"USA","state":"VA","city":"Richmond","postal":"23226"}]